[
  {
    "id": 1,
    "title": "Patapat Viaduct",
    "address": "Patapat Viaduct, Pagudpud, Ilocos Region, Philippines",
    "lat": 18.5749751,
    "lng": 120.89512779999995,
    "city": "Pagudpud",
    "state": "Ilocos Region",
    "country": "Philippines",
    "url": "/2015/08/29/carpe-diem-going-up-north-with-ineng-day-2/",
    "external_url": null
  },
  {
    "id": 2,
    "title": "Bangui Windmills",
    "address": "Bangui Windmills, Bangui, Ilocos Region, Philippines",
    "lat": 18.528571,
    "lng": 120.71811000000002,
    "city": "",
    "state": "Cordillera Administrative Region",
    "country": "Philippines",
    "url": "/2015/08/29/carpe-diem-going-up-north-with-ineng-day-3/",
    "external_url": null
  },
  {
    "id": 3,
    "title": "Cape Bojeador Lighthouse,",
    "address": "Cape Bojeador Lighthouse, Burgos, Ilocos Region, Philippines",
    "lat": 18.5121834,
    "lng": 120.59773999999993,
    "city": "Burgos",
    "state": "Ilocos Region",
    "country": "Philippines",
    "url": "/2015/08/29/carpe-diem-going-up-north-with-ineng-day-3/",
    "external_url": null
  },
  {
    "id": 4,
    "title": "Kapurpurawan Rock Formation",
    "address": "Kapurpurawan Rock Formation, Burgos, Ilocos Region, Philippines",
    "lat": 18.538282,
    "lng": 120.65360399999997,
    "city": "Burgos",
    "state": "Ilocos Region",
    "country": "Philippines",
    "url": "/2015/08/29/carpe-diem-going-up-north-with-ineng-day-3/",
    "external_url": null
  },
  {
    "id": 5,
    "title": "Paoay Sand Dunes",
    "address": "Paoay Sand Dunes, Paoay, Ilocos Region, Philippines",
    "lat": 18.09301,
    "lng": 120.48472400000003,
    "city": "Paoay",
    "state": "Ilocos Region",
    "country": "Philippines",
    "url": "/2015/08/29/carpe-diem-going-up-north-with-ineng-day-3/",
    "external_url": null
  },
  {
    "id": 6,
    "title": "Malacañang of the North",
    "address": "Malacañang of the North, Paoay, Ilocos Region, Philippines",
    "lat": 18.128136,
    "lng": 120.53992199999993,
    "city": "Paoay",
    "state": "Ilocos Region",
    "country": "Philippines",
    "url": "/2015/08/29/carpe-diem-going-up-north-with-ineng-day-3/",
    "external_url": null
  },
  {
    "id": 7,
    "title": "Ferdinand Marcos Presidential Center",
    "address": "Batac, Ilocos Region, Philippines",
    "lat": 18.0460318,
    "lng": 120.59407770000007,
    "city": "Batac",
    "state": "Ilocos Region",
    "country": "Philippines",
    "url": "/2015/08/29/carpe-diem-going-up-north-with-ineng-day-3/",
    "external_url": null
  },
  {
    "id": 8,
    "title": "Calle Crisologo",
    "address": "Calle Crisologo, Vigan City, Ilocos Region, Philippines",
    "lat": 17.571296,
    "lng": 120.38876500000003,
    "city": "Vigan City",
    "state": "Ilocos Region",
    "country": "Philippines",
    "url": "/2015/08/29/carpe-diem-going-up-north-with-ineng-day-3/",
    "external_url": null
  },
  {
    "id": 9,
    "title": "Baluarte",
    "address": "Baluarte, Vigan City, Ilocos Region, Philippines",
    "lat": 17.551578,
    "lng": 120.37705699999992,
    "city": "Vigan City",
    "state": "Ilocos Region",
    "country": "Philippines",
    "url": "/2015/08/29/carpe-diem-going-up-north-with-ineng-day-3/",
    "external_url": null
  },
  {
    "id": 10,
    "title": "Baguio",
    "address": "Baguio, Cordillera Administrative Region, Philippines",
    "lat": 16.4023332,
    "lng": 120.59600709999995,
    "city": "Baguio",
    "state": "Cordillera Administrative Region",
    "country": "Philippines",
    "url": null,
    "external_url": null
  },
  {
    "id": 11,
    "title": "Strawberry Fields",
    "address": "Strawberry Fields, La Trinidad, Cordillera Administrative Region, Philippines",
    "lat": 16.4571627,
    "lng": 120.58474810000007,
    "city": "La Trinidad",
    "state": "Cordillera Administrative Region",
    "country": "Philippines",
    "url": null,
    "external_url": null
  },
  {
    "id": 12,
    "title": "Coron Island",
    "address": "Coron Island, Coron, MIMAROPA, Philippines",
    "lat": 11.9283293,
    "lng": 120.23973360000002,
    "city": "Coron",
    "state": "",
    "country": "Philippines",
    "url": "/2014/09/11/4-day-millionaires-in-coron/",
    "external_url": null
  },
  {
    "id": 13,
    "title": "Banana Island",
    "address": "Banana Island, Coron, Philippines",
    "lat": 11.770858,
    "lng": 120.12669200000005,
    "city": "Coron",
    "state": "",
    "country": "Philippines",
    "url": "/2014/09/11/4-day-millionaires-in-coron/",
    "external_url": null
  },
  {
    "id": 14,
    "title": "Apo Island",
    "address": "Apo Island, Dauin, Central Visayas, Philippines",
    "lat": 9.079721300000001,
    "lng": 123.27142920000006,
    "city": "Dauin",
    "state": "",
    "country": "Philippines",
    "url": "/2015/02/23/swimming-with-the-sea-turtles/",
    "external_url": null
  },
  {
    "id": 15,
    "title": "Siquijor",
    "address": "Siquijor, Central Visayas, Philippines",
    "lat": 9.199877899999999,
    "lng": 123.59519249999994,
    "city": "",
    "state": "Central Visayas",
    "country": "Philippines",
    "url": "/2015/02/23/siquijor-the-second-time-around/",
    "external_url": null
  },
  {
    "id": 16,
    "title": "Cagayan De Oro Whitewater River Rafting",
    "address": "Cagayan De Oro Whitewater River Rafting, Cagayan de Oro, Philippines",
    "lat": 8.467342,
    "lng": 124.64775600000007,
    "city": "Cagayan de Oro",
    "state": "",
    "country": "Philippines",
    "url": "/2015/10/03/braving-whitewater-rafting/",
    "external_url": null
  },
  {
    "id": 17,
    "title": "Dahilayan Adventure Park",
    "address": "Dahilayan Adventure Park, Manolo Fortich, Northern Mindanao, Philippines",
    "lat": 8.205889,
    "lng": 124.85748999999998,
    "city": "Manolo Fortich",
    "state": "Northern Mindanao",
    "country": "Philippines",
    "url": "/2013/12/02/dahilayan-adventure-park/",
    "external_url": null
  },
  {
    "id": 18,
    "title": "Davao City",
    "address": "Davao City, Davao Region, Philippines",
    "lat": 7.190708,
    "lng": 125.45534099999998,
    "city": "Davao City",
    "state": "Davao Region",
    "country": "Philippines",
    "url": "/2016/03/23/gone-for-the-weekend-davao-city/",
    "external_url": null
  },
  {
    "id": 19,
    "title": "General Santos City",
    "address": "General Santos City, SOCCSKSARGEN, Philippines",
    "lat": 6.1163861,
    "lng": 125.17161799999997,
    "city": "General Santos",
    "state": "Region XII",
    "country": "Philippines",
    "url": "/2015/10/03/weekend-getaway-southern-mindanao/",
    "external_url": null
  },
  {
    "id": 20,
    "title": "Lake Sebu's 7 Falls",
    "address": "Lake Sebu's 7 Falls, To 2nd Falls, Lake Sebu, SOCCSKSARGEN, Philippines",
    "lat": 6.246609,
    "lng": 124.728609,
    "city": "Lake Sebu",
    "state": "Region XII",
    "country": "Philippines",
    "url": "/2015/10/03/weekend-getaway-southern-mindanao/",
    "external_url": null
  },
  {
    "id": 21,
    "title": "Dipolog City",
    "address": "Dipolog City, Zamboanga Peninsula, Philippines",
    "lat": 8.5142736,
    "lng": 123.33739160000005,
    "city": "Dipolog City",
    "state": "Zamboanga Peninsula",
    "country": "Philippines",
    "url": "/2014/11/26/dragonboat/",
    "external_url": null
  },
  {
    "id": 22,
    "title": "Dakak Park and Beach Resort",
    "address": "Dakak Park and Beach Resort, Dapitan City, Philippines",
    "lat": 8.695334,
    "lng": 123.39337899999998,
    "city": "Dapitan City",
    "state": "",
    "country": "Philippines",
    "url": "/2014/11/24/dakak-park-and-beach-resort/",
    "external_url": null
  },
  {
    "id": 23,
    "title": "Cebu City",
    "address": "Cebu City, Central Visayas, Philippines",
    "lat": 10.3156992,
    "lng": 123.88543660000005,
    "city": "Cebu City",
    "state": "Central Visayas",
    "country": "Philippines",
    "url": "/2016/07/28/iris-jane-and-west-35/",
    "external_url": null
  },
  {
    "id": 24,
    "title": "Bantayan Island",
    "address": "Bantayan Island, Cebu, Central Visayas, Philippines",
    "lat": 11.1843073,
    "lng": 123.74624570000003,
    "city": "",
    "state": "",
    "country": "Philippines",
    "url": "/2014/03/19/the-cool-kids-of-bantayan-island/",
    "external_url": null
  },
  {
    "id": 25,
    "title": "Santiago Bay Beach",
    "address": "Camotes Islands",
    "lat": 10.590403478347428,
    "lng": 124.3081924438477,
    "city": "San Francisco",
    "state": "Central Visayas",
    "country": "Philippines",
    "url": "/2015/06/01/weekend-at-camotes-island/",
    "external_url": null
  },
  {
    "id": 26,
    "title": "Kalanggaman Island",
    "address": "Kalanggaman Island",
    "lat": 11.1143992,
    "lng": 124.2494537,
    "city": "",
    "state": "",
    "country": "Philippines",
    "url": "/2015/04/20/weekend-at-kalanggaman-island/",
    "external_url": null
  },
  {
    "id": 27,
    "title": "Balicasag Island",
    "address": "Balicasag Island",
    "lat": 9.5161073,
    "lng": 123.68330079999998,
    "city": "",
    "state": "",
    "country": "Philippines",
    "url": null,
    "external_url": null
  },
  {
    "id": 28,
    "title": "Panglao Island",
    "address": "Panglao Island, Bohol, Central Visayas, Philippines",
    "lat": 9.5986918,
    "lng": 123.79855440000006,
    "city": "",
    "state": "",
    "country": "Philippines",
    "url": null,
    "external_url": null
  },
  {
    "id": 29,
    "title": "Gibitngil Island",
    "address": "Gibitngil Island",
    "lat": 11.1841113,
    "lng": 123.92203360000008,
    "city": "",
    "state": "",
    "country": "Philippines",
    "url": null,
    "external_url": null
  },
  {
    "id": 30,
    "title": "Moalboal Beach Resort",
    "address": "Moalboal Beach Resort, Moalboal, Philippines",
    "lat": 9.985714,
    "lng": 123.38436100000001,
    "city": "Moalboal",
    "state": "",
    "country": "Philippines",
    "url": "/2015/09/25/cebu-road-trip-down-south/",
    "external_url": null
  },
  {
    "id": 31,
    "title": "Forest Camp",
    "address": "Valencia : Forest Camp, Taft Street, Valencia, Central Visayas, Philippines",
    "lat": 9.287978,
    "lng": 123.23097800000005,
    "city": "Valencia",
    "state": "Central Visayas",
    "country": "Philippines",
    "url": "/2015/11/07/xlr8-ventures-inc-goes-to-negros-oriental/",
    "external_url": null
  },
  {
    "id": 32,
    "title": "Manila",
    "address": "Manila, NCR, Philippines",
    "lat": 14.5995124,
    "lng": 120.9842195,
    "city": "Manila",
    "state": "Metro Manila",
    "country": "Philippines",
    "url": "/2015/08/29/carpe-diem-going-up-north-with-ineng-day-3/",
    "external_url": null
  },
  {
    "id": 33,
    "title": "Anda de Boracay",
    "address": "Anda de Boracay, Anda, Central Visayas, Philippines",
    "lat": 9.742494,
    "lng": 124.576056,
    "city": "Anda",
    "state": "Central Visayas",
    "country": "Philippines",
    "url": "/2016/04/18/country-living-guindulman-bohol/",
    "external_url": null
  },
  {
    "id": 34,
    "title": "Kawasan Falls",
    "address": "Kawasan Falls, Badian, Central Visayas, Philippines",
    "lat": 9.804304,
    "lng": 123.38254299999994,
    "city": "Badian",
    "state": "Central Visayas",
    "country": "Philippines",
    "url": "/2015/09/06/kanla-ob-canyoneering-a-long-overdue-trip/",
    "external_url": null
  },
  {
    "id": 35,
    "title": "Osmena Peak",
    "address": "Osmeña Peak",
    "lat": 9.8224971,
    "lng": 123.448333,
    "city": "",
    "state": "",
    "country": "",
    "url": "/2016/02/28/a-cold-and-foggy-night-at-osmena-peak/",
    "external_url": null
  },
  {
    "id": 36,
    "title": "Pandanon Island",
    "address": "Pandanon Island",
    "lat": 10.1791667,
    "lng": 124.08361109999998,
    "city": "",
    "state": "",
    "country": "Philippines",
    "url": "/2015/03/23/island-hopping-in-cebu/",
    "external_url": null
  },
  {
    "id": 37,
    "title": "Chocolate Hills",
    "address": "Chocolate Hills, Loay Interior Road, Carmen, Central Visayas, Philippines",
    "lat": 9.833694,
    "lng": 124.198036,
    "city": "Carmen",
    "state": "Central Visayas",
    "country": "Philippines",
    "url": "/2015/10/04/bohol-in-a-nutshell/",
    "external_url": null
  },
  {
    "id": 38,
    "title": "Sagbayan Peak",
    "address": "Sagbayan Peak, Carmen-Sagbayan-Bacani Road, Sagbayan, Central Visayas, Philippines",
    "lat": 9.927341,
    "lng": 124.07057800000007,
    "city": "Sagbayan",
    "state": "Central Visayas",
    "country": "Philippines",
    "url": "/2015/10/04/bohol-in-a-nutshell/",
    "external_url": null
  },
  {
    "id": 39,
    "title": "Loboc River Cruise",
    "address": "Loboc River Cruise, Loboc, Central Visayas, Philippines",
    "lat": 9.634839,
    "lng": 124.03064500000005,
    "city": "Loboc",
    "state": "Central Visayas",
    "country": "Philippines",
    "url": "/2015/10/04/bohol-in-a-nutshell/",
    "external_url": null
  },
  {
    "id": 40,
    "title": "Loboc Man-Made Forest",
    "address": "Loboc Man-Made Forest, Loay Interior Road, Loboc, Central Visayas, Philippines",
    "lat": 9.664232,
    "lng": 124.07847400000003,
    "city": "Loboc",
    "state": "Central Visayas",
    "country": "Philippines",
    "url": "/2015/10/04/bohol-in-a-nutshell/",
    "external_url": null
  },
  {
    "id": 41,
    "title": "Whale watching",
    "address": "Oslob Whale Shark Watching, Oslob, Central Visayas, Philippines",
    "lat": 9.46374,
    "lng": 123.38042300000006,
    "city": "Tan-awan Oslob",
    "state": "",
    "country": "Philippines",
    "url": "/2015/09/26/whale-shark-encounter-tan-awan-oslob/",
    "external_url": null
  },
  {
    "id": 42,
    "title": "Pescador Island",
    "address": "Pescador Island",
    "lat": 9.923113100000002,
    "lng": 123.34352939999997,
    "city": "",
    "state": "",
    "country": "Philippines",
    "url": "/2015/09/27/moalboal-dolphins-corals-and-sardines/",
    "external_url": null
  },
  {
    "id": 43,
    "title": "Dumaguete City",
    "address": "Dumaguete City, Central Visayas, Philippines",
    "lat": 9.3068402,
    "lng": 123.30544669999995,
    "city": "Dumaguete",
    "state": "Central Visayas",
    "country": "Philippines",
    "url": "/2015/02/23/a-day-in-dumaguete/",
    "external_url": null
  },
  {
    "id": 44,
    "title": "Malapascua Island",
    "address": "Malapascua Island, Daanbantayan, Central Visayas, Philippines",
    "lat": 11.3358464,
    "lng": 124.11563619999993,
    "city": "",
    "state": "",
    "country": "Philippines",
    "url": "/2016/01/09/malapascua-island-more-than-thresher-sharks/",
    "external_url": null
  },
  {
    "id": 45,
    "title": "Camiguin Island",
    "address": "Camiguin Island, Camiguin, Northern Mindanao, Philippines",
    "lat": 9.173216400000001,
    "lng": 124.72987650000005,
    "city": "",
    "state": "",
    "country": "Philippines",
    "url": "/2016/02/13/come-again-to-camiguin/",
    "external_url": null
  },
  {
    "id": 46,
    "title": "Manjuyod Sand Bar",
    "address": "Sand Bar, Negros Oriental, Central Visayas, Philippines",
    "lat": 9.6198608,
    "lng": 123.16748280000002,
    "city": "",
    "state": "Central Visayas",
    "country": "Philippines",
    "url": "/2015/11/07/xlr8-ventures-inc-goes-to-negros-oriental/",
    "external_url": null
  },
  {
    "id": 47,
    "title": "Pamilacan Island",
    "address": "Pamilacan Island, Baclayon, Central Visayas, Philippines",
    "lat": 9.4912726,
    "lng": 123.92203360000008,
    "city": "Baclayon",
    "state": "",
    "country": "Philippines",
    "url": "/2015/10/04/bohol-in-a-nutshell/",
    "external_url": null
  },
  {
    "id": 48,
    "title": "Isola Di Francesco (Puntod Island)",
    "address": "Pontod Island",
    "lat": 9.559671999999999,
    "lng": 123.72086149999996,
    "city": "",
    "state": "",
    "country": "Philippines",
    "url": "/2015/10/04/bohol-in-a-nutshell/",
    "external_url": null
  },
  {
    "id": 49,
    "title": "Campoquino Bay Beach Resort",
    "address": "Campoquino Bay Beach Resort, Philippines",
    "lat": 9.7400091,
    "lng": 122.39644199999998,
    "city": "Sipalay",
    "state": "",
    "country": "Philippines",
    "url": "/2016/02/26/sipalay-city-expecting-the-unexpected/",
    "external_url": null
  },
  {
    "id": 50,
    "title": "Sipalay City",
    "address": "Sipalay City, Western Visayas, Philippines",
    "lat": 9.719788699999999,
    "lng": 122.49200880000001,
    "city": "Sipalay City",
    "state": "Western Visayas",
    "country": "Philippines",
    "url": "/2016/02/26/sipalay-city-expecting-the-unexpected/",
    "external_url": null
  },
  {
    "id": 51,
    "title": "Bayawan City",
    "address": "Bayawan City, Central Visayas, Philippines",
    "lat": 9.361826805795218,
    "lng": 122.81031683300785,
    "city": "Bayawan City",
    "state": "Central Visayas",
    "country": "Philippines",
    "url": "/2016/02/26/sipalay-city-expecting-the-unexpected/",
    "external_url": null
  },
  {
    "id": 52,
    "title": "Perth Beach Resort",
    "address": "Perth Beach Resort, Sipalay City, Western Visayas, Philippines",
    "lat": 9.728808299999999,
    "lng": 122.3945215,
    "city": "Sipalay City",
    "state": "Western Visayas",
    "country": "Philippines",
    "url": "/2016/02/26/sipalay-city-expecting-the-unexpected/",
    "external_url": null
  },
  {
    "id": 53,
    "title": "Casaroro Falls",
    "address": "Casaroro Falls, Taft Street, Valencia, Central Visayas, Philippines",
    "lat": 9.2785485,
    "lng": 123.2052152,
    "city": "Valencia",
    "state": "Central Visayas",
    "country": "Philippines",
    "url": "/2016/03/06/chasing-waterfalls-casaroro-falls/",
    "external_url": null
  },
  {
    "id": 54,
    "title": "Malabo Falls",
    "address": "Malabo Falls",
    "lat": 9.314423009066237,
    "lng": 123.22604493686526,
    "city": "Valencia",
    "state": "Central Visayas",
    "country": "Philippines",
    "url": "/2016/03/06/chasing-waterfalls-malabo-pulangbato-falls/",
    "external_url": null
  },
  {
    "id": 55,
    "title": "Lake Balinsasayao",
    "address": "Lake Balinsasayao, Sibulan, Central Visayas, Philippines",
    "lat": 9.353611100000002,
    "lng": 123.17833330000008,
    "city": "Sibulan",
    "state": "Central Visayas",
    "country": "Philippines",
    "url": "/2016/03/06/twin-lakes-lake-balinsasayao/",
    "external_url": null
  },
  {
    "id": 56,
    "title": "Talicud Island",
    "address": "Talicud Island, Island Garden City of Samal, Davao Region, Philippines",
    "lat": 6.929308199999999,
    "lng": 125.70246099999997,
    "city": "Island Garden City of Samal",
    "state": "",
    "country": "Philippines",
    "url": "/2016/03/23/gone-for-the-weekend-davao-city/",
    "external_url": null
  },
  {
    "id": 57,
    "title": "Hagimit Falls",
    "address": "Hagimit Natures Resort (Hagimit Falls), Island Garden City of Samal, Davao Region, Philippines",
    "lat": 7.066995799999999,
    "lng": 125.72533120000003,
    "city": "Island Garden City of Samal",
    "state": "Davao Region",
    "country": "Philippines",
    "url": "/2016/03/23/chasing-waterfalls-hagimit-falls/",
    "external_url": null
  },
  {
    "id": 58,
    "title": "Nalusuan Island Resort",
    "address": "Nalusuan Island Resort, Cordova, Central Visayas, Philippines",
    "lat": 10.190821,
    "lng": 124.00088849999997,
    "city": "Cordova",
    "state": "Central Visayas",
    "country": "Philippines",
    "url": "/2016/04/04/celebrating-christmas-in-nalusuan-island/",
    "external_url": null
  },
  {
    "id": 59,
    "title": "Canigao Island",
    "address": "Canigao Island, Matalom, Eastern Visayas, Philippines",
    "lat": 10.2485394,
    "lng": 124.74990869999999,
    "city": "Matalom",
    "state": "",
    "country": "Philippines",
    "url": "/2016/04/25/canigao-island-hello-from-the-other-side/",
    "external_url": null
  },
  {
    "id": 60,
    "title": "Hindang Caves and Wild Monkeys",
    "address": "Hindang, Eastern Visayas, Philippines",
    "lat": 10.4305009,
    "lng": 124.74417119999998,
    "city": "Hindang",
    "state": "Eastern Visayas",
    "country": "Philippines",
    "url": "/2016/04/26/the-caves-and-monkeys-of-hindang-leyte/",
    "external_url": null
  },
  {
    "id": 61,
    "title": "Sambawan Island",
    "address": "Sambawan Island",
    "lat": 11.7663058,
    "lng": 124.26386630000002,
    "city": "",
    "state": "",
    "country": "Philippines",
    "url": "/2016/06/12/the-picturesque-sambawan-island/",
    "external_url": null
  },
  {
    "id": 62,
    "title": "Dalutan Island",
    "address": "Dalutan Island, Almeria, Eastern Visayas, Philippines",
    "lat": 11.6298335,
    "lng": 124.34318059999998,
    "city": "Almeria",
    "state": "",
    "country": "Philippines",
    "url": "/2016/06/11/biliran-province-the-definition-of-hospitality/",
    "external_url": null
  },
  {
    "id": 63,
    "title": "Recoletos Falls",
    "address": "Recoletos Falls Road, Almeria, Eastern Visayas, Philippines",
    "lat": 11.6064161,
    "lng": 124.40409799999998,
    "city": "Almeria",
    "state": "Eastern Visayas",
    "country": "Philippines",
    "url": "/2016/06/12/chasing-waterfalls-recoletos-falls/",
    "external_url": null
  },
  {
    "id": 64,
    "title": "Ulan-ulan Falls",
    "address": "Recoletos Falls Road, Almeria, Eastern Visayas, Philippines",
    "lat": 11.6064161,
    "lng": 124.40409799999998,
    "city": "Almeria",
    "state": "Eastern Visayas",
    "country": "Philippines",
    "url": "/2016/06/12/chasing-waterfalls-ulan-ulan-falls/",
    "external_url": null
  },
  {
    "id": 65,
    "title": "Monte Cueva Shrine",
    "address": "Monte Cueva, Maasin City, Eastern Visayas, Philippines",
    "lat": 10.1433363,
    "lng": 124.84127690000003,
    "city": "Maasin City",
    "state": "Eastern Visayas",
    "country": "Philippines",
    "url": "/2016/08/15/maasin-city-salt-city-of-the-philippines/",
    "external_url": null
  },
  {
    "id": 66,
    "title": "Dulag Surf Camp",
    "address": "Dulag, Eastern Visayas, Philippines",
    "lat": 10.9591507,
    "lng": 125.00576950000004,
    "city": "Dulag",
    "state": "Eastern Visayas",
    "country": "Philippines",
    "url": "/2016/08/20/surfs-up-dulag-surf-camp/",
    "external_url": null
  },
  {
    "id": 67,
    "title": "Agas-Agas Bridge",
    "address": "Agas-Agas Bridge, Sogod, Eastern Visayas, Philippines",
    "lat": 10.4964519,
    "lng": 124.99797820000003,
    "city": "Sogod",
    "state": "Eastern Visayas",
    "country": "Philippines",
    "url": "/2016/08/11/road-trip-southern-leyte-and-beyond/",
    "external_url": null
  },
  {
    "id": 68,
    "title": "Sabin Resort Hotel",
    "address": "Sabin Resort Hotel, Ormoc, Eastern Visayas, Philippines",
    "lat": 10.9904859,
    "lng": 124.62120290000007,
    "city": "Ormoc",
    "state": "Eastern Visayas",
    "country": "Philippines",
    "url": "/2016/08/11/road-trip-southern-leyte-and-beyond/",
    "external_url": null
  },
  {
    "id": 69,
    "title": "Baybay City",
    "address": "Baybay City, Eastern Visayas, Philippines",
    "lat": 10.6521412,
    "lng": 124.85256260000006,
    "city": "Baybay City",
    "state": "Eastern Visayas",
    "country": "Philippines",
    "url": "/2016/08/11/road-trip-southern-leyte-and-beyond/",
    "external_url": null
  },
  {
    "id": 70,
    "title": "Verbier",
    "address": "Verbier, Bagnes, Switzerland",
    "lat": 46.09578299999999,
    "lng": 7.228850999999963,
    "city": "Verbier",
    "state": "Wallis",
    "country": "Switzerland",
    "url": "/2017/02/04/verbier-experiencing-snow-for-the-first-time/",
    "external_url": null
  },
  {
    "id": 71,
    "title": "Lausanne",
    "address": "Lausanne, Switzerland",
    "lat": 46.5196535,
    "lng": 6.632273400000031,
    "city": "Lausanne",
    "state": "Vaud",
    "country": "Switzerland",
    "url": "/2020/04/04/sunset-in-lausanne/",
    "external_url": null
  },
  {
    "id": 72,
    "title": "Olympique Museum",
    "address": "The Olympic Museum, Lausanne, Switzerland",
    "lat": 46.5087324,
    "lng": 6.63408789999994,
    "city": "Lausanne",
    "state": "Vaud",
    "country": "Switzerland",
    "url": "/2017/02/20/the-olympic-museum/",
    "external_url": null
  },
  {
    "id": 73,
    "title": "Geneva",
    "address": "Geneva, Switzerland",
    "lat": 46.2043907,
    "lng": 6.143157699999961,
    "city": "Geneva",
    "state": "Geneva",
    "country": "Switzerland",
    "url": "/2017/02/21/a-city-of-history-and-expensive-stuff/",
    "external_url": null
  },
  {
    "id": 74,
    "title": "Old Town Warsaw",
    "address": "Warsaw Old Town, Warsaw, Poland",
    "lat": 52.24773309999999,
    "lng": 21.01360790000001,
    "city": "Warszawa",
    "state": "Masovian Voivodeship",
    "country": "Poland",
    "url": "/2017/04/16/warsaw-old-town/",
    "external_url": null
  },
  {
    "id": 75,
    "title": "Bayonne",
    "address": "Bayonne, France",
    "lat": 43.492949,
    "lng": -1.4748409999999694,
    "city": "Bayonne",
    "state": "Nouvelle-Aquitaine",
    "country": "France",
    "url": "/2017/03/25/good-old-friend-in-bayonne/",
    "external_url": null
  },
  {
    "id": 76,
    "title": "San Sebastian",
    "address": "San Sebastián, Spain",
    "lat": 43.318334,
    "lng": -1.9812312999999904,
    "city": "Donostialdea",
    "state": "Basque Country",
    "country": "Spain",
    "url": "/2017/03/26/a-glance-of-san-sebastian/",
    "external_url": null
  },
  {
    "id": 77,
    "title": "Bordeaux",
    "address": "Bordeaux, France",
    "lat": 44.837789,
    "lng": -0.5791799999999512,
    "city": "Bordeaux",
    "state": "Nouvelle-Aquitaine",
    "country": "France",
    "url": "/2017/11/18/bordeaux-at-night/",
    "external_url": null
  },
  {
    "id": 78,
    "title": "Paris",
    "address": "Paris, France",
    "lat": 48.85661400000001,
    "lng": 2.3522219000000177,
    "city": "Paris",
    "state": "Île-de-France",
    "country": "France",
    "url": "/2021/04/03/paris-france/",
    "external_url": null
  },
  {
    "id": 79,
    "title": "Krakow Old Town",
    "address": "Old Town Square, Szczepańska, Kraków, Poland",
    "lat": 50.0630907,
    "lng": 19.936564599999997,
    "city": "Kraków",
    "state": "małopolskie",
    "country": "Poland",
    "url": "/2017/05/03/krakow-old-town/",
    "external_url": null
  },
  {
    "id": 80,
    "title": "Auschwitz-Birkenau",
    "address": "Auschwitz-Birkenau, Stanisławy Leszczyńskiej, Oswiecim, Poland",
    "lat": 50.0273915,
    "lng": 19.201977299999953,
    "city": "Oświęcim",
    "state": "małopolskie",
    "country": "Poland",
    "url": "/2017/05/06/auschwitz-birkenau-unimaginable-crime-by-mankind/",
    "external_url": null
  },
  {
    "id": 81,
    "title": "Wieliczka Salt Mine",
    "address": "Wieliczka Salt Mine, Wieliczka, Poland",
    "lat": 49.9834763,
    "lng": 20.053796499999976,
    "city": "Wieliczka",
    "state": "małopolskie",
    "country": "Poland",
    "url": "/2017/07/07/the-700-year-old-wieliczka-salt-mine/",
    "external_url": null
  },
  {
    "id": 82,
    "title": "Gdańsk, Poland",
    "address": "Gdańsk, Poland",
    "lat": 54.35202520000001,
    "lng": 18.64663840000003,
    "city": "Gdańsk",
    "state": "Pomeranian Voivodeship",
    "country": "Poland",
    "url": "/2017/07/08/the-free-city-of-danzig-gdansk-poland/",
    "external_url": null
  },
  {
    "id": 83,
    "title": "Sopot, Poland",
    "address": "Sopot, Poland",
    "lat": 54.441581,
    "lng": 18.560095600000068,
    "city": "Sopot",
    "state": "Pomeranian Voivodeship",
    "country": "Poland",
    "url": "/2017/07/09/sopot-a-quick-visit/",
    "external_url": null
  },
  {
    "id": 84,
    "title": "Brussels, Belgium",
    "address": "Brussels, Belgium",
    "lat": 50.8503396,
    "lng": 4.351710300000036,
    "city": "Brussels",
    "state": "Brussels",
    "country": "Belgium",
    "url": "/2017/10/10/belgian-quickie/",
    "external_url": null
  },
  {
    "id": 85,
    "title": "Mont Saint-Michel, France",
    "address": "Mont Saint-Michel, France",
    "lat": 48.63606300000001,
    "lng": -1.511457000000064,
    "city": "Mont Saint-Michel",
    "state": "Normandy",
    "country": "France",
    "url": "/2017/10/21/sleepless-journey-to-mont-saint-michel/",
    "external_url": null
  },
  {
    "id": 86,
    "title": "Rennes, France",
    "address": "Rennes, France",
    "lat": 48.117266,
    "lng": -1.6777925999999752,
    "city": "Rennes",
    "state": "Brittany",
    "country": "France",
    "url": "/2017/10/28/it-rained-in-rennes/",
    "external_url": null
  },
  {
    "id": 87,
    "title": "Palace of Versailles, Versailles, France",
    "address": "Palace of Versailles, Versailles, France",
    "lat": 48.8048649,
    "lng": 2.120355399999994,
    "city": "Versailles",
    "state": "Île-de-France",
    "country": "France",
    "url": "/2017/11/11/walking-around-the-gardens-of-versailles/",
    "external_url": null
  },
  {
    "id": 88,
    "title": "Lourdes, France",
    "address": "Lourdes, France",
    "lat": 43.091463,
    "lng": -0.045726000000058775,
    "city": "Lourdes",
    "state": "Occitanie",
    "country": "France",
    "url": "/2017/11/24/lourdes-pilgrims-town/",
    "external_url": null
  },
  {
    "id": 89,
    "title": "Wrocław, Poland",
    "address": "Wrocław, Poland",
    "lat": 51.1078852,
    "lng": 17.03853760000004,
    "city": "Wrocław",
    "state": "Lower Silesian Voivodeship",
    "country": "Poland",
    "url": "/2017/11/25/wroclaw-dwarves-and-filipino-hospitality/",
    "external_url": null
  },
  {
    "id": 90,
    "title": "Monaco",
    "address": "Monaco",
    "lat": 43.73841760000001,
    "lng": 7.42461579999997,
    "city": "",
    "state": "",
    "country": "Monaco",
    "url": "/2021/08/28/monte-carlo-monaco/",
    "external_url": null
  },
  {
    "id": 91,
    "title": "Èze, France",
    "address": "Èze, France",
    "lat": 43.7278189,
    "lng": 7.361792000000037,
    "city": "Èze",
    "state": "Provence-Alpes-Côte d'Azur",
    "country": "France",
    "url": "/2017/12/11/the-jardin-exotique-deze-when-in-french-riviera/",
    "external_url": null
  },
  {
    "id": 92,
    "title": "Nice, France",
    "address": "Nice, France",
    "lat": 43.7101728,
    "lng": 7.261953199999994,
    "city": "Nice",
    "state": "Provence-Alpes-Côte d'Azur",
    "country": "France",
    "url": "/2017/12/03/nice-experiences-in-nice-when-in-french-riviera/",
    "external_url": null
  },
  {
    "id": 93,
    "title": "Madrid, Spain",
    "address": "Madrid, Spain",
    "lat": 40.4167754,
    "lng": -3.7037901999999576,
    "city": "Madrid",
    "state": "Community of Madrid",
    "country": "Spain",
    "url": "/2018/01/21/my-30th-on-the-28th-in-madrid/",
    "external_url": null
  },
  {
    "id": 94,
    "title": "Segovia, Spain",
    "address": "Segovia, Spain",
    "lat": 40.9429032,
    "lng": -4.1088068999999905,
    "city": "Segovia",
    "state": "Castile and León",
    "country": "Spain",
    "url": "/2018/01/27/spending-a-day-in-unesco-world-heritage-listed-city-of-segovia-spain/",
    "external_url": null
  },
  {
    "id": 95,
    "title": "Toulouse, France",
    "address": "Toulouse, France",
    "lat": 43.604652,
    "lng": 1.4442090000000007,
    "city": "Toulouse",
    "state": "Occitanie",
    "country": "France",
    "url": "/2018/02/04/toulouse-a-series-of-unfortunate-events/",
    "external_url": null
  },
  {
    "id": 96,
    "title": "Zakopane",
    "address": "Zakopane, Poland",
    "lat": 49.29918099999999,
    "lng": 19.949562000000014,
    "city": "Zakopane",
    "state": "Lesser Poland Voivodeship",
    "country": "Poland",
    "url": "/2018/04/07/zakopane-how-not-to-ski/",
    "external_url": null
  },
  {
    "id": 97,
    "title": "Kasprowy Wierch",
    "address": "Kasprowy Wierch",
    "lat": 49.23216420000001,
    "lng": 19.981798000000026,
    "city": "",
    "state": "",
    "country": "",
    "url": "/2018/03/18/kasprowy-wierch-hiking-through-the-snow/",
    "external_url": null
  },
  {
    "id": 98,
    "title": "Poznań",
    "address": "Poznań, Poland",
    "lat": 52.406374,
    "lng": 16.925168100000064,
    "city": "Poznań",
    "state": "Greater Poland Voivodeship",
    "country": "Poland",
    "url": "/2018/04/15/poznan-where-tourists-are-counted-by-two-headbanging-goats/",
    "external_url": null
  },
  {
    "id": 99,
    "title": "Oslo",
    "address": "Oslo, Norway",
    "lat": 59.9138688,
    "lng": 10.752245399999993,
    "city": "Oslo",
    "state": "Oslo",
    "country": "Norway",
    "url": "/2018/05/12/oslo-norway-vikings-deceiving-exchange-rate-and-filipino-hospitability/",
    "external_url": null
  },
  {
    "id": 100,
    "title": "Baarle-Hertog, Belgium",
    "address": "Baarle-Hertog, Belgium",
    "lat": 51.441832,
    "lng": 4.931736000000001,
    "city": "Baarle-Hertog",
    "state": "Flanders",
    "country": "Belgium",
    "url": null,
    "external_url": null
  },
  {
    "id": 101,
    "title": "Amsterdam",
    "address": "Amsterdam, Netherlands",
    "lat": 52.3702157,
    "lng": 4.895167899999933,
    "city": "Amsterdam",
    "state": "North Holland",
    "country": "Netherlands",
    "url": "/2018/08/12/amsterdam-the-city-of-bikes-and-canals/",
    "external_url": null
  },
  {
    "id": 102,
    "title": "Haarlem",
    "address": "Haarlem, Netherlands",
    "lat": 52.3873878,
    "lng": 4.646219400000064,
    "city": "Haarlem",
    "state": "North Holland",
    "country": "Netherlands",
    "url": "/2018/07/07/rainy-journey-to-the-tulip-country/",
    "external_url": null
  },
  {
    "id": 103,
    "title": "Prague",
    "address": "Prague, Czechia",
    "lat": 50.0755381,
    "lng": 14.43780049999998,
    "city": "Prague",
    "state": "Prague",
    "country": "Czechia",
    "url": "/2018/08/25/the-beautiful-city-of-prague/",
    "external_url": null
  },
  {
    "id": 104,
    "title": "Oeschinen Lake, Kandersteg, Switzerland",
    "address": "Oeschinen Lake, Kandersteg, Switzerland",
    "lat": 46.49890889999999,
    "lng": 7.729106300000012,
    "city": "Kandersteg",
    "state": "Canton of Bern",
    "country": "Switzerland",
    "url": "/2017/08/26/hiking-through-unesco-region-of-oeschinensee/",
    "external_url": null
  },
  {
    "id": 105,
    "title": "Częstochowa",
    "address": "Częstochowa, Poland",
    "lat": 50.8118195,
    "lng": 19.120309399999996,
    "city": "Częstochowa",
    "state": "Silesian Voivodeship",
    "country": "Poland",
    "url": "/2018/09/16/czestochowa-the-pilgrims-town-of-poland/",
    "external_url": null
  },
  {
    "id": 106,
    "title": "La Rochelle",
    "address": "La Rochelle, France",
    "lat": 46.160329,
    "lng": -1.1511390000000574,
    "city": "La Rochelle",
    "state": "Nouvelle-Aquitaine",
    "country": "France",
    "url": "/2018/10/21/la-rochelle-long-time-no-see-sea/",
    "external_url": null
  },
  {
    "id": 107,
    "title": "Futuroscope",
    "address": "Futuroscope, Avenue René Monory, Chasseneuil-du-Poitou, France",
    "lat": 46.6698573,
    "lng": 0.36975810000001275,
    "city": "Chasseneuil-du-Poitou",
    "state": "Nouvelle-Aquitaine",
    "country": "France",
    "url": "/2018/11/12/futuroscope-a-technology-themed-park/",
    "external_url": null
  },
  {
    "id": 108,
    "title": "Poitiers",
    "address": "Poitiers, France",
    "lat": 46.58022400000001,
    "lng": 0.34037499999999454,
    "city": "Poitiers",
    "state": "Nouvelle-Aquitaine",
    "country": "France",
    "url": "/2018/10/07/poitiers-the-city-of-students/",
    "external_url": null
  },
  {
    "id": 109,
    "title": "Kehl, Germany",
    "address": "Kehl, Germany",
    "lat": 48.57887249999999,
    "lng": 7.816082100000017,
    "city": "Ortenaukreis",
    "state": "Baden-Württemberg",
    "country": "Germany",
    "url": "/2019/01/27/the-quiet-little-town-of-kehl/",
    "external_url": null
  },
  {
    "id": 110,
    "title": "Strasbourg, France",
    "address": "Strasbourg, France",
    "lat": 48.57340529999999,
    "lng": 7.752111300000024,
    "city": "Strasbourg",
    "state": "Grand Est",
    "country": "France",
    "url": "/2019/03/03/strasbourg-capital-de-noel/",
    "external_url": null
  },
  {
    "id": 111,
    "title": "Disneyland Paris",
    "address": "Disneyland Paris, Boulevard de Parc, Coupvray, France",
    "lat": 48.86717689999999,
    "lng": 2.783826500000032,
    "city": "Coupvray",
    "state": "Île-de-France",
    "country": "France",
    "url": "/2019/03/30/disneyland-paris-waking-up-the-kid-inside/",
    "external_url": null
  },
  {
    "id": 112,
    "title": "Montreux, Switzerland",
    "address": "Montreux, Switzerland",
    "lat": 46.4312213,
    "lng": 6.910679899999991,
    "city": "Montreux",
    "state": "Vaud",
    "country": "Switzerland",
    "url": "/2019/05/05/hiking-along-lac-leman/",
    "external_url": null
  },
  {
    "id": 113,
    "title": "Siargao",
    "address": "Siargao Island, Philippines",
    "lat": 9.848188299999999,
    "lng": 126.04584369999998,
    "city": "",
    "state": "Caraga",
    "country": "Philippines",
    "url": "/2019/09/29/the-elusive-island-of-siargao/",
    "external_url": null
  },
  {
    "id": 114,
    "title": "Hong Kong",
    "address": "Hong Kong",
    "lat": 22.3193039,
    "lng": 114.16936110000006,
    "city": "",
    "state": "",
    "country": "Hong Kong",
    "url": "/2019/10/26/hong-kong-in-less-than-an-hour/",
    "external_url": null
  },
  {
    "id": 115,
    "title": "Arcachon",
    "address": "Arcachon, France",
    "lat": 44.652297,
    "lng": -1.1785016,
    "city": "Arcachon",
    "state": "Nouvelle-Aquitaine",
    "country": "France",
    "url": "/2020/08/23/arcachon-france/",
    "external_url": null
  },
  {
    "id": 116,
    "title": "Dune du Pilat",
    "address": "Dune du Pilat, France",
    "lat": 44.58965250000001,
    "lng": -1.2133338,
    "city": "",
    "state": "Nouvelle-Aquitaine",
    "country": "France",
    "url": "/2020/09/13/dune-du-pilat-france/",
    "external_url": null
  },
  {
    "id": 117,
    "title": "Antibes",
    "address": "Antibes, France",
    "lat": 43.58041799999999,
    "lng": 7.125102,
    "city": "Antibes",
    "state": "Provence-Alpes-Côte d'Azur",
    "country": "France",
    "url": "/2021/08/01/antibes-france/",
    "external_url": null
  },
  {
    "id": 118,
    "title": "Menton, France",
    "address": "Menton, France",
    "lat": 43.774481,
    "lng": 7.497540000000001,
    "city": "Menton",
    "state": "Provence-Alpes-Côte d'Azur",
    "country": "France",
    "url": "/2021/08/14/menton-france/",
    "external_url": null
  },
  {
    "id": 119,
    "title": "Dubai Expo 2020",
    "address": "Dubai Expo 2020 - Al Wasl Avenue - Dubai - United Arab Emirates",
    "lat": 24.9608843,
    "lng": 55.1506911,
    "city": "Dubai",
    "state": "Dubai",
    "country": "United Arab Emirates",
    "url": "/2022/02/13/dubai-expo-2020-uae/",
    "external_url": null
  },
  {
    "id": 120,
    "title": "Liwa, UAE",
    "address": "Liwa - Abu Dhabi - UAE",
    "lat": 22.9239922,
    "lng": 53.9935892,
    "city": "",
    "state": "Abu Dhabi",
    "country": "United Arab Emirates",
    "url": "/2022/03/20/liwa-uae/",
    "external_url": null
  },
  {
    "id": 121,
    "title": "Colmar",
    "address": "Colmar, France",
    "lat": 48.0793589,
    "lng": 7.358511999999999,
    "city": "Colmar",
    "state": "Grand Est",
    "country": "France",
    "url": null,
    "external_url": null
  },
  {
    "id": 122,
    "title": "Basel",
    "address": "Basel, Switzerland",
    "lat": 47.5595986,
    "lng": 7.5885761,
    "city": "Basel",
    "state": "Basel City",
    "country": "Switzerland",
    "url": null,
    "external_url": null
  },
  {
    "id": 123,
    "title": "Rome",
    "address": "Rome, Italy",
    "lat": 41.9027008,
    "lng": 12.4962352,
    "city": "",
    "state": "Lazio",
    "country": "Italy",
    "url": "/2022/11/21/rome-italy/",
    "external_url": null
  },
  {
    "id": 124,
    "title": "Turin",
    "address": "Turin, Italy",
    "lat": 45.063299,
    "lng": 7.669289,
    "city": "",
    "state": "Piedmont",
    "country": "Italy",
    "url": null,
    "external_url": null
  },
  {
    "id": 125,
    "title": "Vatican",
    "address": "Vatican City",
    "lat": 41.902916,
    "lng": 12.453389,
    "city": "Vatican City",
    "state": "",
    "country": "Vatican City",
    "url": null,
    "external_url": null
  },
  {
    "id": 126,
    "title": "Perpignan",
    "address": "Perpignan, France",
    "lat": 42.6886591,
    "lng": 2.8948332,
    "city": "Perpignan",
    "state": "Occitanie",
    "country": "France",
    "url": null,
    "external_url": null
  },
  {
    "id": 127,
    "title": "Lyon",
    "address": "Lyon, France",
    "lat": 45.764043,
    "lng": 4.835659,
    "city": "Lyon",
    "state": "Auvergne-Rhône-Alpes",
    "country": "France",
    "url": null,
    "external_url": null
  },
  {
    "id": 128,
    "title": "Granville",
    "address": "Granville, France",
    "lat": 48.837579,
    "lng": -1.597302,
    "city": "Granville",
    "state": "Normandy",
    "country": "France",
    "url": null,
    "external_url": null
  },
  {
    "id": 129,
    "title": "Îles Chausey",
    "address": "Îles Chausey, France",
    "lat": 48.87997555,
    "lng": -1.8291199,
    "city": "",
    "state": "Normandy",
    "country": "France",
    "url": null,
    "external_url": null
  },
  {
    "id": 130,
    "title": "Clermont-Ferrand",
    "address": "Clermont-Ferrand, France",
    "lat": 45.77722199999999,
    "lng": 3.087025,
    "city": "Clermont-Ferrand",
    "state": "Auvergne-Rhône-Alpes",
    "country": "France",
    "url": null,
    "external_url": null
  },
  {
    "id": 131,
    "title": "Metz, France",
    "address": "Metz, France",
    "lat": 49.1193089,
    "lng": 6.175715599999999,
    "city": "Metz",
    "state": "Grand Est",
    "country": "France",
    "url": "/2023/02/20/metz-france/",
    "external_url": null
  },
  {
    "id": 132,
    "title": "Luxembourg, Luxembourg",
    "address": "Luxembourg, Luxembourg",
    "lat": 49.61162100000001,
    "lng": 6.1319346,
    "city": "Luxembourg",
    "state": "Luxembourg",
    "country": "Luxembourg",
    "url": "/2023/03/20/luxembourg-luxembourg/",
    "external_url": null
  },
  {
    "id": 133,
    "title": "Lille, France",
    "address": "Lille, France",
    "lat": 50.62925,
    "lng": 3.057256,
    "city": "Lille",
    "state": "Hauts-de-France",
    "country": "France",
    "url": "/2023/04/20/lille-france/",
    "external_url": null
  },
  {
    "id": 134,
    "title": "Dunkirk, France",
    "address": "Dunkirk, France",
    "lat": 51.0343684,
    "lng": 2.3767763,
    "city": "Dunkirk",
    "state": "Hauts-de-France",
    "country": "France",
    "url": null,
    "external_url": "https://jboy.cagumbay.com/category/travel/"
  },
  {
    "id": 135,
    "title": "Ghent, Belgium",
    "address": "Ghent, Belgium",
    "lat": 51.0500182,
    "lng": 3.7303351,
    "city": "Ghent",
    "state": "Flanders",
    "country": "Belgium",
    "url": "/2023/06/20/ghent-belgium/",
    "external_url": null
  },
  {
    "id": 136,
    "title": "Nantes, France",
    "address": "Nantes, France",
    "lat": 47.218371,
    "lng": -1.553621,
    "city": "Nantes",
    "state": "Pays de la Loire",
    "country": "France",
    "url": "/2023/07/20/nantes-france/",
    "external_url": null
  },
  {
    "id": 137,
    "title": "Barcelona, Spain",
    "address": "Barcelona, Spain",
    "lat": 41.3873974,
    "lng": 2.168568,
    "city": "Barcelona",
    "state": "Catalonia",
    "country": "Spain",
    "url": "/2023/08/20/barcelona-spain/",
    "external_url": null
  },
  {
    "id": 138,
    "title": "Montserrat, Spain",
    "address": "Montserrat, Spain",
    "lat": 41.59577650000001,
    "lng": 1.8298142,
    "city": "",
    "state": "Catalonia",
    "country": "Spain",
    "url": "/2023/09/20/montserrat-spain/",
    "external_url": null
  },
  {
    "id": 139,
    "title": "Troyes, France",
    "address": "Troyes, France",
    "lat": 48.2973451,
    "lng": 4.0744009,
    "city": "Troyes",
    "state": "Grand Est",
    "country": "France",
    "url": "/2023/10/20/troyes-france/",
    "external_url": null
  },
  {
    "id": 140,
    "title": "Mallorca, Spain",
    "address": "Mallorca, Spain",
    "lat": 39.6952629,
    "lng": 3.0175712,
    "city": "",
    "state": "Balearic Islands",
    "country": "Spain",
    "url": "/2023/12/20/mallorca-spain/",
    "external_url": null
  },
  {
    "id": 141,
    "title": "Rouen, France",
    "address": "Rouen, France",
    "lat": 49.44323199999999,
    "lng": 1.099971,
    "city": "Rouen",
    "state": "Normandy",
    "country": "France",
    "url": "/2024/01/20/rouen-france/",
    "external_url": null
  },
  {
    "id": 142,
    "title": "Abu Dhabi, United Arab Emirates",
    "address": "Abu Dhabi - United Arab Emirates",
    "lat": 24.453884,
    "lng": 54.3773438,
    "city": "Abu Dhabi",
    "state": "Abu Dhabi",
    "country": "United Arab Emirates",
    "url": "/2022/05/01/abu-dhabi-aue/",
    "external_url": null
  },
  {
    "id": 143,
    "title": "Étretat, France",
    "address": "Étretat, France",
    "lat": 49.7070069,
    "lng": 0.2055978,
    "city": "Étretat",
    "state": "Normandy",
    "country": "France",
    "url": "/2024/02/20/etretat-france/",
    "external_url": null
  },
  {
    "id": 144,
    "title": "Valleta, Malta",
    "address": "Valletta, Malta",
    "lat": 35.8992375,
    "lng": 14.5140996,
    "city": "Valletta",
    "state": "",
    "country": "Malta",
    "url": "/2024/03/20/valleta-malta/",
    "external_url": null
  },
  {
    "id": 145,
    "title": "Blue Grotto, Malta",
    "address": "Blue Grotto, Malta",
    "lat": 35.8208561,
    "lng": 14.4574093,
    "city": "",
    "state": "",
    "country": "Malta",
    "url": "/2024/04/20/blue-grotto-malta/",
    "external_url": null
  },
  {
    "id": 146,
    "title": "Mdina, Malta",
    "address": "Mdina, Malta",
    "lat": 35.8863691,
    "lng": 14.4031146,
    "city": "Mdina",
    "state": "",
    "country": "Malta",
    "url": "/2024/05/20/mdina-malta/",
    "external_url": null
  },
  {
    "id": 147,
    "title": "Gozo, Malta",
    "address": "Gozo, Malta",
    "lat": 36.0442999,
    "lng": 14.2512221,
    "city": "",
    "state": "",
    "country": "Malta",
    "url": "/2024/06/20/gozo-malta/",
    "external_url": null
  },
  {
    "id": 148,
    "title": "Singapore, Singapore",
    "address": "Singapore, Singapore",
    "lat": 1.2811866,
    "lng": 103.8503404,
    "city": "Singapore",
    "state": "",
    "country": "Singapore",
    "url": "/2024/07/20/singapore/",
    "external_url": null
  },
  {
    "id": 149,
    "title": "Brisbane, Australia",
    "address": "Brisbane QLD, Australia",
    "lat": -27.4704528,
    "lng": 153.0260341,
    "city": "Brisbane",
    "state": "Queensland",
    "country": "Australia",
    "url": null,
    "external_url": null
  },
  {
    "id": 150,
    "title": "Gold Coast",
    "address": "Gold Coast QLD, Australia",
    "lat": -28.016667,
    "lng": 153.4,
    "city": "Gold Coast",
    "state": "Queensland",
    "country": "Australia",
    "url": "/2024/09/20/gold-coast-australia/",
    "external_url": null
  },
  {
    "id": 151,
    "title": "Sydney",
    "address": "Sydney NSW, Australia",
    "lat": -33.8688197,
    "lng": 151.2092955,
    "city": "Sydney",
    "state": "New South Wales",
    "country": "Australia",
    "url": "/2024/10/20/sydney-australia/",
    "external_url": null
  },
  {
    "id": 152,
    "title": "Ostende, Belgium",
    "address": "Ostende, Belgium",
    "lat": 51.22471849999999,
    "lng": 2.9092214,
    "city": "Ostend",
    "state": "Flanders",
    "country": "Belgium",
    "url": "/2024/12/20/ostend-belgium/",
    "external_url": null
  },
  {
    "id": 153,
    "title": "Brugge, Belgium",
    "address": "Brugge, Belgium",
    "lat": 51.20845079999999,
    "lng": 3.2250586,
    "city": "Bruges",
    "state": "Flanders",
    "country": "Belgium",
    "url": "/2024/11/20/bruges-belgium/",
    "external_url": null
  },
  {
    "id": 154,
    "title": "Dubai, UAE",
    "address": "Dubai - UAE",
    "lat": 25.2048493,
    "lng": 55.2707828,
    "city": "Dubai",
    "state": "Dubai",
    "country": "United Arab Emirates",
    "url": "/2025/05/20/dubai-uae/",
    "external_url": null
  },
  {
    "id": 155,
    "title": "Tromsø, Norway",
    "address": "Tromsø, Norway",
    "lat": 69.6492047,
    "lng": 18.9553238,
    "city": "Tromsø",
    "state": "Troms",
    "country": "Norway",
    "url": "/2025/04/19/tromso-norway/",
    "external_url": null
  },
  {
    "id": 156,
    "title": "London, UK",
    "address": "London, UK",
    "lat": 51.5072178,
    "lng": -0.1275862,
    "city": "London",
    "state": "England",
    "country": "United Kingdom",
    "url": "/2025/03/15/london-uk/",
    "external_url": null
  },
  {
    "id": 157,
    "title": "New York",
    "address": "New York, NY, USA",
    "lat": 40.7127753,
    "lng": -74.0059728,
    "city": "New York",
    "state": "New York",
    "country": "United States",
    "url": "/2025/06/20/new-york-city-usa/",
    "external_url": null
  },
  {
    "id": 158,
    "title": "Marrakesh, Morocco",
    "address": "Marrakesh, Morocco",
    "lat": 31.6225224,
    "lng": -7.989825799999999,
    "city": "Marrakesh",
    "state": "Marrakesh-Safi",
    "country": "Morocco",
    "url": "/2025/07/20/marrakesh-morocco/",
    "external_url": null
  },
  {
    "id": 159,
    "title": "Crete, Greece",
    "address": "Crete, Greece",
    "lat": 35.240117,
    "lng": 24.8092691,
    "city": "",
    "state": "",
    "country": "Greece",
    "url": "https://jboy.cagumbay.com/?p=6716&preview=true",
    "external_url": null
  },
  {
    "id": 160,
    "title": "Frankfurt, Germany",
    "address": "Frankfurt am Main, Germany",
    "lat": 50.1109221,
    "lng": 8.6821267,
    "city": "Frankfurt am Main",
    "state": "Hessen",
    "country": "Germany",
    "url": "/2025/09/20/frankfurt-germany/",
    "external_url": null
  },
  {
    "id": 161,
    "title": "Lisbon, Portugal",
    "address": "Lisbon, Portugal",
    "lat": 38.7222524,
    "lng": -9.1393366,
    "city": "Lisbon",
    "state": "Lisbon",
    "country": "Portugal",
    "url": "/2026/02/07/lisbon-portugal/",
    "external_url": null
  },
  {
    "id": 162,
    "title": "Copenhagen, Denmark",
    "address": "Copenhagen, Denmark",
    "lat": 55.6760968,
    "lng": 12.5683371,
    "city": "Copenhagen",
    "state": "",
    "country": "Denmark",
    "url": "/2025/11/25/copenhagen-denmark/",
    "external_url": null
  },
  {
    "id": 163,
    "title": "Annecy, France",
    "address": "Annecy, France",
    "lat": 45.9058956,
    "lng": 6.1259117,
    "city": "Annecy",
    "state": "Auvergne-Rhône-Alpes",
    "country": "France",
    "url": "/2025/12/24/annecy-france/",
    "external_url": null
  },
  {
    "id": 164,
    "title": "Utrecht, Netherlands",
    "address": "Utrecht, Netherlands",
    "lat": 52.09192549999999,
    "lng": 5.1229572,
    "city": "Utrecht",
    "state": "Utrecht",
    "country": "Netherlands",
    "url": "/2025/10/20/utrecht-the-netherlands/",
    "external_url": null
  }
]